{
    "type": "FeatureCollection",
    "name": "stops-all",
    "crs": {
        "type": "name",
        "properties": {
            "name": "urn:ogc:def:crs:OGC:1.3:CRS84"
        }
    },
    "features": [
        {
            "type": "Feature",
            "properties": {
                "node_id": 3783233928.0,
                "name": "Enschede"
            },
            "geometry": {
                "type": "Point",
                "coordinates": [
                    6.8895238,
                    52.2224789
                ]
            }
        },
        {
            "type": "Feature",
            "properties": {
                "node_id": 5451456277,
                "name": "Liège-Carré"
            },
            "geometry": {
                "type": "Point",
                "coordinates": [
                    5.5619218,
                    50.6405734
                ]
            }
        },       
        {
            "type": "Feature",
            "properties": {
                "node_id": 4034243636,
                "name": "Heerlen Woonboulevard"
            },
            "geometry": {
                "type": "Point",
                "coordinates": [
                    5.9527975,
                    50.8961435
                ]
            }
        },
        {
            "type": "Feature",
            "properties": {
                "node_id": 672320237,
                "name": "Dortmund-Kirchderne"
            },
            "geometry": {
                "type": "Point",
                "coordinates": [
                    7.5102250,
                    51.5470764
                ]
            }
        },
        {
            "type": "Feature",
            "properties": {
                "node_id": 4018000913,
                "name": "Eygelshoven Markt"
            },
            "geometry": {
                "type": "Point",
                "coordinates": [
                    6.0577972,
                    50.8961030
                ]
            }
        },
        {
            "type": "Feature",
            "properties": {
                "node_id": 2803572197,
                "name": "Hoogkarspel"
            },
            "geometry": {
                "type": "Point",
                "coordinates": [
                    5.1825103,
                    52.6904670
                ]
            }
        },
        {
            "type": "Feature",
            "properties": {
                "node_id": 7537897483,
                "name": "Houthem-Sint Gerlach"
            },
            "geometry": {
                "type": "Point",
                "coordinates": [
                    5.7966263,
                    50.8733866
                ]
            }
        },
        {
            "type": "Feature",
            "properties": {
                "node_id": 1364686371,
                "name": "Kufstein"
            },
            "geometry": {
                "type": "Point",
                "coordinates": [
                    12.1657270,
                    47.5829718
                ]
            }
        },
        {
            "type": "Feature",
            "properties": {
                "node_id": 5687009082,
                "name": "Chevremont"
            },
            "geometry": {
                "type": "Point",
                "coordinates": [
                    6.0595563,
                    50.8762291
                ]
            }
        },
        {
            "type": "Feature",
            "properties": {
                "node_id": 5316997823,
                "name": "Kerkrade Centrum"
            },
            "geometry": {
                "type": "Point",
                "coordinates": [
                    6.0572213,
                    50.8613851
                ]
            }
        },
        {
            "type": "Feature",
            "properties": {
                "node_id": 821254661,
                "name": "Heerenveen IJsstadion"
            },
            "geometry": {
                "type": "Point",
                "coordinates": [
                    5.9431983,
                    52.9361531
                ]
            }
        },
        {
            "type": "Feature",
            "properties": {
                "node_id": 7537874944,
                "name": "Geleen Oost"
            },
            "geometry": {
                "type": "Point",
                "coordinates": [
                    5.8431636,
                    50.9670581
                ]
            }
        },
        {
            "type": "Feature",
            "properties": {
                "node_id": 7047065519,
                "name": "Hoensbroek"
            },
            "geometry": {
                "type": "Point",
                "coordinates": [
                    5.9302573,
                    50.9055737
                ]
            }
        },
        {
            "type": "Feature",
            "properties": {
                "node_id": 7606555867,
                "name": "Spaubeek"
            },
            "geometry": {
                "type": "Point",
                "coordinates": [
                    5.8495905,
                    50.9434247
                ]
            }
        },
        {
            "type": "Feature",
            "properties": {
                "node_id": 3293165266,
                "name": "Nuth"
            },
            "geometry": {
                "type": "Point",
                "coordinates": [
                    5.8926700,
                    50.9198085
                ]
            }
        },
        {
            "type": "Feature",
            "properties": {
                "node_id": 258338991,
                "name": "Preußen"
            },
            "geometry": {
                "type": "Point",
                "coordinates": [
                    7.5395873,
                    51.5881716
                ]
            }
        },
        {
            "type": "Feature",
            "properties": {
                "node_id": 7537918485,
                "name": "Klimmen-Ransdaal"
            },
            "geometry": {
                "type": "Point",
                "coordinates": [
                    5.8901666,
                    50.8662625
                ]
            }
        },
        {
            "type": "Feature",
            "properties": {
                "node_id": 5451456278,
                "name": "Liège-Saint-Lambert"
            },
            "geometry": {
                "type": "Point",
                "coordinates": [
                    5.5709122,
                    50.6464988
                ]
            }
        },
        {
            "type": "Feature",
            "properties": {
                "node_id": 7072277768,
                "name": "Eijsden"
            },
            "geometry": {
                "type": "Point",
                "coordinates": [
                    5.7100788,
                    50.7720454
                ]
            }
        },
        {
            "type": "Feature",
            "properties": {
                "node_id": 2815620698,
                "name": "Valkenburg"
            },
            "geometry": {
                "type": "Point",
                "coordinates": [
                    5.8328817,
                    50.8692901
                ]
            }
        },
        {
            "type": "Feature",
            "properties": {
                "node_id": 5368442765,
                "name": "Bressoux"
            },
            "geometry": {
                "type": "Point",
                "coordinates": [
                    5.6131398,
                    50.6444511
                ]
            }
        },
        {
            "type": "Feature",
            "properties": {
                "node_id": 5687009081,
                "name": "Eygelshoven"
            },
            "geometry": {
                "type": "Point",
                "coordinates": [
                    6.0456023,
                    50.8901122
                ]
            }
        },
        {
            "type": "Feature",
            "properties": {
                "node_id": 5230752679,
                "name": "Gare du Nord (RER)"
            },
            "geometry": {
                "type": "Point",
                "coordinates": [
                    2.3574380,
                    48.8813990
                ]
            }
        },
        {
            "type": "Feature",
            "properties": {
                "node_id": 7537897484,
                "name": "Voerendaal"
            },
            "geometry": {
                "type": "Point",
                "coordinates": [
                    5.9294168,
                    50.8868406
                ]
            }
        },
        {
            "type": "Feature",
            "properties": {
                "node_id": 7537897481,
                "name": "Maastricht Noord"
            },
            "geometry": {
                "type": "Point",
                "coordinates": [
                    5.7175501,
                    50.8705194
                ]
            }
        },
        {
            "type": "Feature",
            "properties": {
                "node_id": 1600595884,
                "name": "Rotterdam Stadion"
            },
            "geometry": {
                "type": "Point",
                "coordinates": [
                    4.5196728,
                    51.8938710
                ]
            }
        },
        {
            "type": "Feature",
            "properties": {
                "node_id": 672320237,
                "name": "Dortmund-Kirchderne"
            },
            "geometry": {
                "type": "Point",
                "coordinates": [
                    7.5102250,
                    51.5470764
                ]
            }
        },        
        {
            "type": "Feature",
            "properties": {
                "node_id": 2365928002,
                "name": "Visé"
            },
            "geometry": {
                "type": "Point",
                "coordinates": [
                    5.6923093,
                    50.7383248
                ]
            }
        },
        {
            "type": "Feature",
            "properties": {
                "node_id": 5316997912,
                "name": "Landgraaf"
            },
            "geometry": {
                "type": "Point",
                "coordinates": [
                    6.0196861,
                    50.8964910
                ]
            }
        },
        {
            "type": "Feature",
            "properties": {
                "node_id": 2028453341,
                "name": "Schinnen"
            },
            "geometry": {
                "type": "Point",
                "coordinates": [
                    5.8745796,
                    50.9390309
                ]
            }
        },
        {
            "type": "Feature",
            "properties": {
                "node_id": 672373389,
                "name": "Dortmund-Derne"
            },
            "geometry": {
                "type": "Point",
                "coordinates": [
                    7.5286081,
                    51.5673369
                ]
            }
        },
        {
            "type": "Feature",
            "properties": {
                "node_id": 11208806839,
                "name": "Meerssen"
            },
            "geometry": {
                "type": "Point",
                "coordinates": [
                    5.7501291,
                    50.8826069
                ]
            }
        },
        {
            "type": "Feature",
            "properties": {
                "node_id": 4530819998,
                "name": "Stendal Hauptbahnhof"
            },
            "geometry": {
                "type": "Point",
                "coordinates": [
                    11.8548875,
                    52.5946768
                ]
            }
        },
        {
            "type": "Feature",
            "properties": {
                "node_id": 41984084,
                "name": "Schin op Geul"
            },
            "geometry": {
                "type": "Point",
                "coordinates": [
                    5.8714734,
                    50.8559809
                ]
            }
        },
        {
            "type": "Feature",
            "properties": {
                "node_id": 8745537418,
                "name": "Lille-Europe"
            },
            "geometry": {
                "type": "Point",
                "coordinates": [
                    3.0757140,
                    50.6389830
                ]
            }
        },                                                                                                                                                                                                                                                                
        {
            "type": "Feature",
            "properties": {
                "node_id": 3784308114.0,
                "name": "Enschede Kennispark"
            },
            "geometry": {
                "type": "Point",
                "coordinates": [
                    6.8388106,
                    52.2374321
                ]
            }
        },
        {
            "type": "Feature",
            "properties": {
                "node_id": 3786207359.0,
                "name": "Hengelo"
            },
            "geometry": {
                "type": "Point",
                "coordinates": [
                    6.7962114,
                    52.2616724
                ]
            }
        },
        {
            "type": "Feature",
            "properties": {
                "node_id": 46078271.0,
                "name": "Borne"
            },
            "geometry": {
                "type": "Point",
                "coordinates": [
                    6.7485197,
                    52.2986381
                ]
            }
        },
        {
            "type": "Feature",
            "properties": {
                "node_id": 46257382.0,
                "name": "Almelo de Riet"
            },
            "geometry": {
                "type": "Point",
                "coordinates": [
                    6.6664249,
                    52.3422418
                ]
            }
        },
        {
            "type": "Feature",
            "properties": {
                "node_id": 3789126271.0,
                "name": "Almelo"
            },
            "geometry": {
                "type": "Point",
                "coordinates": [
                    6.6541375,
                    52.3579836
                ]
            }
        },
        {
            "type": "Feature",
            "properties": {
                "node_id": 3594213354.0,
                "name": "Wierden"
            },
            "geometry": {
                "type": "Point",
                "coordinates": [
                    6.5921496,
                    52.3615746
                ]
            }
        },
        {
            "type": "Feature",
            "properties": {
                "node_id": 2280076817.0,
                "name": "Nijverdal"
            },
            "geometry": {
                "type": "Point",
                "coordinates": [
                    6.4624206,
                    52.3663954
                ]
            }
        },
        {
            "type": "Feature",
            "properties": {
                "node_id": 3594213353.0,
                "name": "Raalte"
            },
            "geometry": {
                "type": "Point",
                "coordinates": [
                    6.2781841,
                    52.3913931
                ]
            }
        },
        {
            "type": "Feature",
            "properties": {
                "node_id": 3594213352.0,
                "name": "Heino"
            },
            "geometry": {
                "type": "Point",
                "coordinates": [
                    6.2220528,
                    52.4269926
                ]
            }
        },
        {
            "type": "Feature",
            "properties": {
                "node_id": 5803134461.0,
                "name": "Zwolle"
            },
            "geometry": {
                "type": "Point",
                "coordinates": [
                    6.0897807,
                    52.5052351
                ]
            }
        },
        {
            "type": "Feature",
            "properties": {
                "node_id": 3807229045.0,
                "name": "Zutphen"
            },
            "geometry": {
                "type": "Point",
                "coordinates": [
                    6.1948018,
                    52.1449485
                ]
            }
        },
        {
            "type": "Feature",
            "properties": {
                "node_id": 45541072.0,
                "name": "Lochem"
            },
            "geometry": {
                "type": "Point",
                "coordinates": [
                    6.426383,
                    52.1668385
                ]
            }
        },
        {
            "type": "Feature",
            "properties": {
                "node_id": 45807491.0,
                "name": "Goor"
            },
            "geometry": {
                "type": "Point",
                "coordinates": [
                    6.5868009,
                    52.2302249
                ]
            }
        },
        {
            "type": "Feature",
            "properties": {
                "node_id": 45924538.0,
                "name": "Delden"
            },
            "geometry": {
                "type": "Point",
                "coordinates": [
                    6.715144,
                    52.2601198
                ]
            }
        },
        {
            "type": "Feature",
            "properties": {
                "node_id": 1740845240.0,
                "name": "Hengelo Gezondheidspark"
            },
            "geometry": {
                "type": "Point",
                "coordinates": [
                    6.7679502,
                    52.2616514
                ]
            }
        },
        {
            "type": "Feature",
            "properties": {
                "node_id": 3786207384.0,
                "name": "Hengelo"
            },
            "geometry": {
                "type": "Point",
                "coordinates": [
                    6.7961413,
                    52.2614701
                ]
            }
        },
        {
            "type": "Feature",
            "properties": {
                "node_id": 5610532031.0,
                "name": "Hengelo Oost"
            },
            "geometry": {
                "type": "Point",
                "coordinates": [
                    6.8205264,
                    52.2692813
                ]
            }
        },
        {
            "type": "Feature",
            "properties": {
                "node_id": 3599126536.0,
                "name": "Oldenzaal"
            },
            "geometry": {
                "type": "Point",
                "coordinates": [
                    6.9338048,
                    52.3062999
                ]
            }
        },
        {
            "type": "Feature",
            "properties": {
                "node_id": 11374459005.0,
                "name": "Oldenzaal"
            },
            "geometry": {
                "type": "Point",
                "coordinates": [
                    6.9372966,
                    52.306641
                ]
            }
        },
        {
            "type": "Feature",
            "properties": {
                "node_id": 3095680914.0,
                "name": "Zwolle"
            },
            "geometry": {
                "type": "Point",
                "coordinates": [
                    6.0911602,
                    52.5044872
                ]
            }
        },
        {
            "type": "Feature",
            "properties": {
                "node_id": 46472215.0,
                "name": "Wijhe"
            },
            "geometry": {
                "type": "Point",
                "coordinates": [
                    6.1404524,
                    52.3902786
                ]
            }
        },
        {
            "type": "Feature",
            "properties": {
                "node_id": 46226599.0,
                "name": "Olst"
            },
            "geometry": {
                "type": "Point",
                "coordinates": [
                    6.1134665,
                    52.3357035
                ]
            }
        },
        {
            "type": "Feature",
            "properties": {
                "node_id": 45911933.0,
                "name": "Deventer"
            },
            "geometry": {
                "type": "Point",
                "coordinates": [
                    6.1613302,
                    52.2570892
                ]
            }
        },
        {
            "type": "Feature",
            "properties": {
                "node_id": 1095248611.0,
                "name": "Zutphen"
            },
            "geometry": {
                "type": "Point",
                "coordinates": [
                    6.1940867,
                    52.1449035
                ]
            }
        },
        {
            "type": "Feature",
            "properties": {
                "node_id": 1097068227.0,
                "name": "Dieren"
            },
            "geometry": {
                "type": "Point",
                "coordinates": [
                    6.1028223,
                    52.0447076
                ]
            }
        },
        {
            "type": "Feature",
            "properties": {
                "node_id": 4311913805.0,
                "name": "Arnhem Centraal"
            },
            "geometry": {
                "type": "Point",
                "coordinates": [
                    5.9003643,
                    51.9849884
                ]
            }
        },
        {
            "type": "Feature",
            "properties": {
                "node_id": 1023505428.0,
                "name": "Nijmegen"
            },
            "geometry": {
                "type": "Point",
                "coordinates": [
                    5.8519923,
                    51.8428755
                ]
            }
        },
        {
            "type": "Feature",
            "properties": {
                "node_id": 1027174051.0,
                "name": "Oss"
            },
            "geometry": {
                "type": "Point",
                "coordinates": [
                    5.5317538,
                    51.7654425
                ]
            }
        },
        {
            "type": "Feature",
            "properties": {
                "node_id": 2689124811.0,
                "name": "'s-Hertogenbosch"
            },
            "geometry": {
                "type": "Point",
                "coordinates": [
                    5.2928401,
                    51.6896561
                ]
            }
        },
        {
            "type": "Feature",
            "properties": {
                "node_id": 1026245261.0,
                "name": "Tilburg"
            },
            "geometry": {
                "type": "Point",
                "coordinates": [
                    5.0833773,
                    51.5607791
                ]
            }
        },
        {
            "type": "Feature",
            "properties": {
                "node_id": 2043212734.0,
                "name": "Breda"
            },
            "geometry": {
                "type": "Point",
                "coordinates": [
                    4.7799599,
                    51.5956993
                ]
            }
        },
        {
            "type": "Feature",
            "properties": {
                "node_id": 3578186049.0,
                "name": "Etten-Leur"
            },
            "geometry": {
                "type": "Point",
                "coordinates": [
                    4.6364048,
                    51.5752107
                ]
            }
        },
        {
            "type": "Feature",
            "properties": {
                "node_id": 4970423096.0,
                "name": "Roosendaal"
            },
            "geometry": {
                "type": "Point",
                "coordinates": [
                    4.4578403,
                    51.5399789
                ]
            }
        },
        {
            "type": "Feature",
            "properties": {
                "node_id": 5238035702.0,
                "name": "Den Haag Centraal"
            },
            "geometry": {
                "type": "Point",
                "coordinates": [
                    4.3243307,
                    52.0808573
                ]
            }
        },
        {
            "type": "Feature",
            "properties": {
                "node_id": 4743203774.0,
                "name": "Gouda"
            },
            "geometry": {
                "type": "Point",
                "coordinates": [
                    4.7060592,
                    52.0173826
                ]
            }
        },
        {
            "type": "Feature",
            "properties": {
                "node_id": 2984341868.0,
                "name": "Utrecht Centraal"
            },
            "geometry": {
                "type": "Point",
                "coordinates": [
                    5.1098192,
                    52.0897617
                ]
            }
        },
        {
            "type": "Feature",
            "properties": {
                "node_id": 45486403.0,
                "name": "Amersfoort Centraal"
            },
            "geometry": {
                "type": "Point",
                "coordinates": [
                    5.3725497,
                    52.153533
                ]
            }
        },
        {
            "type": "Feature",
            "properties": {
                "node_id": 2712978849.0,
                "name": "Apeldoorn"
            },
            "geometry": {
                "type": "Point",
                "coordinates": [
                    5.9692789,
                    52.2091964
                ]
            }
        },
        {
            "type": "Feature",
            "properties": {
                "node_id": 2313636900.0,
                "name": "Deventer"
            },
            "geometry": {
                "type": "Point",
                "coordinates": [
                    6.1612717,
                    52.2570197
                ]
            }
        },
        {
            "type": "Feature",
            "properties": {
                "node_id": 1787484422.0,
                "name": "Almelo"
            },
            "geometry": {
                "type": "Point",
                "coordinates": [
                    6.6539259,
                    52.357902
                ]
            }
        },
        {
            "type": "Feature",
            "properties": {
                "node_id": 1124762943.0,
                "name": "Hengelo"
            },
            "geometry": {
                "type": "Point",
                "coordinates": [
                    6.7944238,
                    52.2616923
                ]
            }
        },
        {
            "type": "Feature",
            "properties": {
                "node_id": 3783233919.0,
                "name": "Enschede"
            },
            "geometry": {
                "type": "Point",
                "coordinates": [
                    6.8895219,
                    52.2223199
                ]
            }
        },
        {
            "type": "Feature",
            "properties": {
                "node_id": 1226575809.0,
                "name": "Kaarster See"
            },
            "geometry": {
                "type": "Point",
                "coordinates": [
                    6.5942444,
                    51.2265768
                ]
            }
        },
        {
            "type": "Feature",
            "properties": {
                "node_id": 124723784.0,
                "name": "Kaarster Bahnhof"
            },
            "geometry": {
                "type": "Point",
                "coordinates": [
                    6.6072715,
                    51.2225331
                ]
            }
        },
        {
            "type": "Feature",
            "properties": {
                "node_id": 124718172.0,
                "name": "Kaarst-Mitte/Holzbüttgen"
            },
            "geometry": {
                "type": "Point",
                "coordinates": [
                    6.6174074,
                    51.2194239
                ]
            }
        },
        {
            "type": "Feature",
            "properties": {
                "node_id": 1226575845.0,
                "name": "Kaarst IKEA"
            },
            "geometry": {
                "type": "Point",
                "coordinates": [
                    6.6298675,
                    51.217018
                ]
            }
        },
        {
            "type": "Feature",
            "properties": {
                "node_id": 1022398272.0,
                "name": "Neuss Hbf"
            },
            "geometry": {
                "type": "Point",
                "coordinates": [
                    6.6842906,
                    51.2046144
                ]
            }
        },
        {
            "type": "Feature",
            "properties": {
                "node_id": 667897920.0,
                "name": "Neuss Am Kaiser"
            },
            "geometry": {
                "type": "Point",
                "coordinates": [
                    6.6977491,
                    51.2202095
                ]
            }
        },
        {
            "type": "Feature",
            "properties": {
                "node_id": 667897900.0,
                "name": "Neuss Rheinparkcenter"
            },
            "geometry": {
                "type": "Point",
                "coordinates": [
                    6.716931,
                    51.2061473
                ]
            }
        },
        {
            "type": "Feature",
            "properties": {
                "node_id": 667899894.0,
                "name": "Düsseldorf-Hamm"
            },
            "geometry": {
                "type": "Point",
                "coordinates": [
                    6.7404189,
                    51.210702
                ]
            }
        },
        {
            "type": "Feature",
            "properties": {
                "node_id": 667897946.0,
                "name": "Düsseldorf Völklinger Straße"
            },
            "geometry": {
                "type": "Point",
                "coordinates": [
                    6.7605575,
                    51.2100703
                ]
            }
        },
        {
            "type": "Feature",
            "properties": {
                "node_id": 1068789394.0,
                "name": "Düsseldorf-Bilk"
            },
            "geometry": {
                "type": "Point",
                "coordinates": [
                    6.7761693,
                    51.2079219
                ]
            }
        },
        {
            "type": "Feature",
            "properties": {
                "node_id": 667312079.0,
                "name": "Düsseldorf-Friedrichstadt"
            },
            "geometry": {
                "type": "Point",
                "coordinates": [
                    6.7891817,
                    51.2120706
                ]
            }
        },
        {
            "type": "Feature",
            "properties": {
                "node_id": 449627733.0,
                "name": "Düsseldorf Hauptbahnhof"
            },
            "geometry": {
                "type": "Point",
                "coordinates": [
                    6.7945119,
                    51.2197991
                ]
            }
        },
        {
            "type": "Feature",
            "properties": {
                "node_id": 667918263.0,
                "name": "Düsseldorf-Flingern"
            },
            "geometry": {
                "type": "Point",
                "coordinates": [
                    6.8106645,
                    51.2262085
                ]
            }
        },
        {
            "type": "Feature",
            "properties": {
                "node_id": 1022394165.0,
                "name": "Düsseldorf-Gerresheim"
            },
            "geometry": {
                "type": "Point",
                "coordinates": [
                    6.8640726,
                    51.2201913
                ]
            }
        },
        {
            "type": "Feature",
            "properties": {
                "node_id": 1022654252.0,
                "name": "Erkrath Nord"
            },
            "geometry": {
                "type": "Point",
                "coordinates": [
                    6.9094706,
                    51.2293383
                ]
            }
        },
        {
            "type": "Feature",
            "properties": {
                "node_id": 1328452243.0,
                "name": "Neanderthal"
            },
            "geometry": {
                "type": "Point",
                "coordinates": [
                    6.9532257,
                    51.2277518
                ]
            }
        },
        {
            "type": "Feature",
            "properties": {
                "node_id": 1334325041.0,
                "name": "Mettmann Zentrum"
            },
            "geometry": {
                "type": "Point",
                "coordinates": [
                    6.9797889,
                    51.2486266
                ]
            }
        },
        {
            "type": "Feature",
            "properties": {
                "node_id": 1328489895.0,
                "name": "Mettmann Stadtwald"
            },
            "geometry": {
                "type": "Point",
                "coordinates": [
                    6.987102,
                    51.2510055
                ]
            }
        },
        {
            "type": "Feature",
            "properties": {
                "node_id": 5489652670.0,
                "name": "Hahnenfurth / Düssel"
            },
            "geometry": {
                "type": "Point",
                "coordinates": [
                    7.0553872,
                    51.2540063
                ]
            }
        },
        {
            "type": "Feature",
            "properties": {
                "node_id": 70657826.0,
                "name": "Wuppertal-Vohwinkel"
            },
            "geometry": {
                "type": "Point",
                "coordinates": [
                    7.0715264,
                    51.2344846
                ]
            }
        },
        {
            "type": "Feature",
            "properties": {
                "node_id": 1222139864.0,
                "name": "Wuppertal Zoologischer Garten"
            },
            "geometry": {
                "type": "Point",
                "coordinates": [
                    7.107064,
                    51.2434078
                ]
            }
        },
        {
            "type": "Feature",
            "properties": {
                "node_id": 1222165765.0,
                "name": "Wuppertal-Steinbeck"
            },
            "geometry": {
                "type": "Point",
                "coordinates": [
                    7.1408054,
                    51.2506847
                ]
            }
        },
        {
            "type": "Feature",
            "properties": {
                "node_id": 463302611.0,
                "name": "Wuppertal Hauptbahnhof"
            },
            "geometry": {
                "type": "Point",
                "coordinates": [
                    7.1501208,
                    51.2544211
                ]
            }
        },
        {
            "type": "Feature",
            "properties": {
                "node_id": 4953465161.0,
                "name": "Leuven"
            },
            "geometry": {
                "type": "Point",
                "coordinates": [
                    4.7167234,
                    50.8814906
                ]
            }
        },
        {
            "type": "Feature",
            "properties": {
                "node_id": 1414910222.0,
                "name": "Wezemaal"
            },
            "geometry": {
                "type": "Point",
                "coordinates": [
                    4.7480598,
                    50.9563934
                ]
            }
        },
        {
            "type": "Feature",
            "properties": {
                "node_id": 1255791935.0,
                "name": "Aarschot"
            },
            "geometry": {
                "type": "Point",
                "coordinates": [
                    4.8233892,
                    50.9841649
                ]
            }
        },
        {
            "type": "Feature",
            "properties": {
                "node_id": 4953465162.0,
                "name": "Heist-op-den-berg"
            },
            "geometry": {
                "type": "Point",
                "coordinates": [
                    4.7091611,
                    51.0736166
                ]
            }
        },
        {
            "type": "Feature",
            "properties": {
                "node_id": 357227362.0,
                "name": "Lier"
            },
            "geometry": {
                "type": "Point",
                "coordinates": [
                    4.5603594,
                    51.1358022
                ]
            }
        },
        {
            "type": "Feature",
            "properties": {
                "node_id": 348278023.0,
                "name": "Antwerpen-Berchem"
            },
            "geometry": {
                "type": "Point",
                "coordinates": [
                    4.4320441,
                    51.1996254
                ]
            }
        },
        {
            "type": "Feature",
            "properties": {
                "node_id": 348409569.0,
                "name": "Antwerpen-Centraal"
            },
            "geometry": {
                "type": "Point",
                "coordinates": [
                    4.4208956,
                    51.2162791
                ]
            }
        },
        {
            "type": "Feature",
            "properties": {
                "node_id": 1448626864.0,
                "name": "Haltern am See"
            },
            "geometry": {
                "type": "Point",
                "coordinates": [
                    7.1840544,
                    51.7376459
                ]
            }
        },
        {
            "type": "Feature",
            "properties": {
                "node_id": 4783973548.0,
                "name": "Marl-Hamm"
            },
            "geometry": {
                "type": "Point",
                "coordinates": [
                    7.1312595,
                    51.6828583
                ]
            }
        },
        {
            "type": "Feature",
            "properties": {
                "node_id": 257430727.0,
                "name": "Marl Mitte"
            },
            "geometry": {
                "type": "Point",
                "coordinates": [
                    7.0995436,
                    51.6537938
                ]
            }
        },
        {
            "type": "Feature",
            "properties": {
                "node_id": 4783973549.0,
                "name": "Gelsenkirchen-Hassel"
            },
            "geometry": {
                "type": "Point",
                "coordinates": [
                    7.0665868,
                    51.6108425
                ]
            }
        },
        {
            "type": "Feature",
            "properties": {
                "node_id": 4783973550.0,
                "name": "Gelsenkirchen Buer-Nord"
            },
            "geometry": {
                "type": "Point",
                "coordinates": [
                    7.0510023,
                    51.5873632
                ]
            }
        },
        {
            "type": "Feature",
            "properties": {
                "node_id": 1198781180.0,
                "name": "Gladbeck West"
            },
            "geometry": {
                "type": "Point",
                "coordinates": [
                    6.976325,
                    51.5749734
                ]
            }
        },
        {
            "type": "Feature",
            "properties": {
                "node_id": 4733028656.0,
                "name": "Bottrop-Boy"
            },
            "geometry": {
                "type": "Point",
                "coordinates": [
                    6.9677209,
                    51.5371464
                ]
            }
        },
        {
            "type": "Feature",
            "properties": {
                "node_id": 256332739.0,
                "name": "Bottrop Hbf"
            },
            "geometry": {
                "type": "Point",
                "coordinates": [
                    6.936563,
                    51.5095521
                ]
            }
        },
        {
            "type": "Feature",
            "properties": {
                "node_id": 607992906.0,
                "name": "Essen-Dellwig Ost"
            },
            "geometry": {
                "type": "Point",
                "coordinates": [
                    6.9271515,
                    51.4876372
                ]
            }
        },
        {
            "type": "Feature",
            "properties": {
                "node_id": 256335700.0,
                "name": "Essen-Borbeck"
            },
            "geometry": {
                "type": "Point",
                "coordinates": [
                    6.9483227,
                    51.4731358
                ]
            }
        },
        {
            "type": "Feature",
            "properties": {
                "node_id": 256329676.0,
                "name": "Essen-Borbeck Süd"
            },
            "geometry": {
                "type": "Point",
                "coordinates": [
                    6.9538564,
                    51.4616765
                ]
            }
        },
        {
            "type": "Feature",
            "properties": {
                "node_id": 449588748.0,
                "name": "Essen West"
            },
            "geometry": {
                "type": "Point",
                "coordinates": [
                    6.9801173,
                    51.4544053
                ]
            }
        },
        {
            "type": "Feature",
            "properties": {
                "node_id": 666871534.0,
                "name": "Essen Hauptbahnhof"
            },
            "geometry": {
                "type": "Point",
                "coordinates": [
                    7.0139582,
                    51.4511221
                ]
            }
        },
        {
            "type": "Feature",
            "properties": {
                "node_id": 384743790.0,
                "name": "Essen-Steele"
            },
            "geometry": {
                "type": "Point",
                "coordinates": [
                    7.0756633,
                    51.4506254
                ]
            }
        },
        {
            "type": "Feature",
            "properties": {
                "node_id": 384731946.0,
                "name": "Essen-Überruhr"
            },
            "geometry": {
                "type": "Point",
                "coordinates": [
                    7.0686901,
                    51.4285019
                ]
            }
        },
        {
            "type": "Feature",
            "properties": {
                "node_id": 954824712.0,
                "name": "Essen-Holthausen"
            },
            "geometry": {
                "type": "Point",
                "coordinates": [
                    7.0727316,
                    51.4176189
                ]
            }
        },
        {
            "type": "Feature",
            "properties": {
                "node_id": 1701184821.0,
                "name": "Essen-Kupferdreh"
            },
            "geometry": {
                "type": "Point",
                "coordinates": [
                    7.0799475,
                    51.3911139
                ]
            }
        },
        {
            "type": "Feature",
            "properties": {
                "node_id": 954938813.0,
                "name": "Velbert-Nierenhof"
            },
            "geometry": {
                "type": "Point",
                "coordinates": [
                    7.1348913,
                    51.3714813
                ]
            }
        },
        {
            "type": "Feature",
            "properties": {
                "node_id": 954951937.0,
                "name": "Velbert-Langenberg"
            },
            "geometry": {
                "type": "Point",
                "coordinates": [
                    7.1223766,
                    51.3548325
                ]
            }
        },
        {
            "type": "Feature",
            "properties": {
                "node_id": 994781787.0,
                "name": "Velbert-Neviges"
            },
            "geometry": {
                "type": "Point",
                "coordinates": [
                    7.0904173,
                    51.3131324
                ]
            }
        },
        {
            "type": "Feature",
            "properties": {
                "node_id": 994810149.0,
                "name": "Velbert Rosenhügel"
            },
            "geometry": {
                "type": "Point",
                "coordinates": [
                    7.1016627,
                    51.3001387
                ]
            }
        },
        {
            "type": "Feature",
            "properties": {
                "node_id": 994832606.0,
                "name": "Wülfrath-Aprath"
            },
            "geometry": {
                "type": "Point",
                "coordinates": [
                    7.0720533,
                    51.267953
                ]
            }
        },
        {
            "type": "Feature",
            "properties": {
                "node_id": 1222109426.0,
                "name": "Wuppertal-Sonnborn"
            },
            "geometry": {
                "type": "Point",
                "coordinates": [
                    7.0965884,
                    51.2405197
                ]
            }
        },
        {
            "type": "Feature",
            "properties": {
                "node_id": 463302638.0,
                "name": "Wuppertal Hauptbahnhof"
            },
            "geometry": {
                "type": "Point",
                "coordinates": [
                    7.1501778,
                    51.2542677
                ]
            }
        },
        {
            "type": "Feature",
            "properties": {
                "node_id": 1020489055.0,
                "name": "Düsseldorf Hauptbahnhof"
            },
            "geometry": {
                "type": "Point",
                "coordinates": [
                    6.7939861,
                    51.2200577
                ]
            }
        },
        {
            "type": "Feature",
            "properties": {
                "node_id": 51878899.0,
                "name": "Düsseldorf Flughafen"
            },
            "geometry": {
                "type": "Point",
                "coordinates": [
                    6.7866475,
                    51.2915654
                ]
            }
        },
        {
            "type": "Feature",
            "properties": {
                "node_id": 940999417.0,
                "name": "Duisburg Hauptbahnhof"
            },
            "geometry": {
                "type": "Point",
                "coordinates": [
                    6.7765158,
                    51.4296535
                ]
            }
        },
        {
            "type": "Feature",
            "properties": {
                "node_id": 1721476841.0,
                "name": "Oberhausen Hbf"
            },
            "geometry": {
                "type": "Point",
                "coordinates": [
                    6.8519241,
                    51.4747468
                ]
            }
        },
        {
            "type": "Feature",
            "properties": {
                "node_id": 364740805.0,
                "name": "Oberhausen-Sterkrade"
            },
            "geometry": {
                "type": "Point",
                "coordinates": [
                    6.8436252,
                    51.5120883
                ]
            }
        },
        {
            "type": "Feature",
            "properties": {
                "node_id": 7126430952.0,
                "name": "Oberhausen-Holten"
            },
            "geometry": {
                "type": "Point",
                "coordinates": [
                    6.8112686,
                    51.5342088
                ]
            }
        },
        {
            "type": "Feature",
            "properties": {
                "node_id": 12417024944.0,
                "name": "Dinslaken"
            },
            "geometry": {
                "type": "Point",
                "coordinates": [
                    6.7382533,
                    51.567688
                ]
            }
        },
        {
            "type": "Feature",
            "properties": {
                "node_id": 3177779792.0,
                "name": "Voerde (Niederrhein)"
            },
            "geometry": {
                "type": "Point",
                "coordinates": [
                    6.6885861,
                    51.5977371
                ]
            }
        },
        {
            "type": "Feature",
            "properties": {
                "node_id": 4681181423.0,
                "name": "Friedrichsfeld (Niederrhein)"
            },
            "geometry": {
                "type": "Point",
                "coordinates": [
                    6.6454924,
                    51.6285064
                ]
            }
        },
        {
            "type": "Feature",
            "properties": {
                "node_id": 1418913632.0,
                "name": "Wesel"
            },
            "geometry": {
                "type": "Point",
                "coordinates": [
                    6.6271585,
                    51.6558987
                ]
            }
        },
        {
            "type": "Feature",
            "properties": {
                "node_id": 332449169.0,
                "name": "Blumenkamp"
            },
            "geometry": {
                "type": "Point",
                "coordinates": [
                    6.613125,
                    51.6951772
                ]
            }
        },
        {
            "type": "Feature",
            "properties": {
                "node_id": 319797818.0,
                "name": "Hamminkeln"
            },
            "geometry": {
                "type": "Point",
                "coordinates": [
                    6.6016851,
                    51.7353054
                ]
            }
        },
        {
            "type": "Feature",
            "properties": {
                "node_id": 4742481468.0,
                "name": "Dingden"
            },
            "geometry": {
                "type": "Point",
                "coordinates": [
                    6.6078762,
                    51.7703731
                ]
            }
        },
        {
            "type": "Feature",
            "properties": {
                "node_id": 4742481467.0,
                "name": "Bocholt"
            },
            "geometry": {
                "type": "Point",
                "coordinates": [
                    6.6203436,
                    51.8340428
                ]
            }
        },
        {
            "type": "Feature",
            "properties": {
                "node_id": 29007132.0,
                "name": "Münster (Westf) Hbf"
            },
            "geometry": {
                "type": "Point",
                "coordinates": [
                    7.6354411,
                    51.9567419
                ]
            }
        },
        {
            "type": "Feature",
            "properties": {
                "node_id": 287903433.0,
                "name": "Greven"
            },
            "geometry": {
                "type": "Point",
                "coordinates": [
                    7.5988247,
                    52.0909639
                ]
            }
        },
        {
            "type": "Feature",
            "properties": {
                "node_id": 457882879.0,
                "name": "Emsdetten"
            },
            "geometry": {
                "type": "Point",
                "coordinates": [
                    7.5312851,
                    52.1770783
                ]
            }
        },
        {
            "type": "Feature",
            "properties": {
                "node_id": 1387747607.0,
                "name": "Rheine"
            },
            "geometry": {
                "type": "Point",
                "coordinates": [
                    7.4346784,
                    52.276119
                ]
            }
        },
        {
            "type": "Feature",
            "properties": {
                "node_id": 1392925028.0,
                "name": "Salzbergen"
            },
            "geometry": {
                "type": "Point",
                "coordinates": [
                    7.3511704,
                    52.3228126
                ]
            }
        },
        {
            "type": "Feature",
            "properties": {
                "node_id": 4545701895.0,
                "name": "Leschede"
            },
            "geometry": {
                "type": "Point",
                "coordinates": [
                    7.3059789,
                    52.3976202
                ]
            }
        },
        {
            "type": "Feature",
            "properties": {
                "node_id": 2045881223.0,
                "name": "Lingen (Ems)"
            },
            "geometry": {
                "type": "Point",
                "coordinates": [
                    7.3217967,
                    52.5198945
                ]
            }
        },
        {
            "type": "Feature",
            "properties": {
                "node_id": 1394004145.0,
                "name": "Meppen"
            },
            "geometry": {
                "type": "Point",
                "coordinates": [
                    7.2980874,
                    52.6960078
                ]
            }
        },
        {
            "type": "Feature",
            "properties": {
                "node_id": 4545701898.0,
                "name": "Haren (Ems)"
            },
            "geometry": {
                "type": "Point",
                "coordinates": [
                    7.3019865,
                    52.7858925
                ]
            }
        },
        {
            "type": "Feature",
            "properties": {
                "node_id": 1420058679.0,
                "name": "Lathen"
            },
            "geometry": {
                "type": "Point",
                "coordinates": [
                    7.3225388,
                    52.861006
                ]
            }
        },
        {
            "type": "Feature",
            "properties": {
                "node_id": 4545701900.0,
                "name": "Dörpen"
            },
            "geometry": {
                "type": "Point",
                "coordinates": [
                    7.3533902,
                    52.9598085
                ]
            }
        },
        {
            "type": "Feature",
            "properties": {
                "node_id": 4144792373.0,
                "name": "Papenburg"
            },
            "geometry": {
                "type": "Point",
                "coordinates": [
                    7.3878454,
                    53.090461
                ]
            }
        },
        {
            "type": "Feature",
            "properties": {
                "node_id": 96507699.0,
                "name": "Leer (Ostfriesland)"
            },
            "geometry": {
                "type": "Point",
                "coordinates": [
                    7.4651998,
                    53.2314965
                ]
            }
        },
        {
            "type": "Feature",
            "properties": {
                "node_id": 1495981335.0,
                "name": "Emden Hauptbahnhof"
            },
            "geometry": {
                "type": "Point",
                "coordinates": [
                    7.1955473,
                    53.3697062
                ]
            }
        },
        {
            "type": "Feature",
            "properties": {
                "node_id": 1387747611.0,
                "name": "Rheine"
            },
            "geometry": {
                "type": "Point",
                "coordinates": [
                    7.4344542,
                    52.2760413
                ]
            }
        },
        {
            "type": "Feature",
            "properties": {
                "node_id": 3020660000.0,
                "name": "Rheine-Mesum"
            },
            "geometry": {
                "type": "Point",
                "coordinates": [
                    7.4855806,
                    52.2230979
                ]
            }
        },
        {
            "type": "Feature",
            "properties": {
                "node_id": 1387795610.0,
                "name": "Emsdetten"
            },
            "geometry": {
                "type": "Point",
                "coordinates": [
                    7.5316839,
                    52.1764385
                ]
            }
        },
        {
            "type": "Feature",
            "properties": {
                "node_id": 3020659999.0,
                "name": "Reckenfeld"
            },
            "geometry": {
                "type": "Point",
                "coordinates": [
                    7.5655234,
                    52.1326181
                ]
            }
        },
        {
            "type": "Feature",
            "properties": {
                "node_id": 1387810608.0,
                "name": "Greven"
            },
            "geometry": {
                "type": "Point",
                "coordinates": [
                    7.5995438,
                    52.08962
                ]
            }
        },
        {
            "type": "Feature",
            "properties": {
                "node_id": 1387810543.0,
                "name": "Münster-Sprakel"
            },
            "geometry": {
                "type": "Point",
                "coordinates": [
                    7.6207729,
                    52.0405524
                ]
            }
        },
        {
            "type": "Feature",
            "properties": {
                "node_id": 1992639778.0,
                "name": "Münster Zentrum Nord"
            },
            "geometry": {
                "type": "Point",
                "coordinates": [
                    7.6384132,
                    51.9838799
                ]
            }
        },
        {
            "type": "Feature",
            "properties": {
                "node_id": 1874198837.0,
                "name": "Münster (Westf) Hbf"
            },
            "geometry": {
                "type": "Point",
                "coordinates": [
                    7.6351748,
                    51.9567722
                ]
            }
        },
        {
            "type": "Feature",
            "properties": {
                "node_id": 4016802507.0,
                "name": "Groningen"
            },
            "geometry": {
                "type": "Point",
                "coordinates": [
                    6.5629639,
                    53.2108326
                ]
            }
        },
        {
            "type": "Feature",
            "properties": {
                "node_id": 48236798.0,
                "name": "Groningen Noord"
            },
            "geometry": {
                "type": "Point",
                "coordinates": [
                    6.5563013,
                    53.2298432
                ]
            }
        },
        {
            "type": "Feature",
            "properties": {
                "node_id": 48336499.0,
                "name": "Sauwerd"
            },
            "geometry": {
                "type": "Point",
                "coordinates": [
                    6.5404525,
                    53.2915948
                ]
            }
        },
        {
            "type": "Feature",
            "properties": {
                "node_id": 48358465.0,
                "name": "Bedum"
            },
            "geometry": {
                "type": "Point",
                "coordinates": [
                    6.5927108,
                    53.306889
                ]
            }
        },
        {
            "type": "Feature",
            "properties": {
                "node_id": 48388349.0,
                "name": "Stedum"
            },
            "geometry": {
                "type": "Point",
                "coordinates": [
                    6.6874766,
                    53.3263359
                ]
            }
        },
        {
            "type": "Feature",
            "properties": {
                "node_id": 1104701610.0,
                "name": "Loppersum"
            },
            "geometry": {
                "type": "Point",
                "coordinates": [
                    6.7473726,
                    53.3347564
                ]
            }
        },
        {
            "type": "Feature",
            "properties": {
                "node_id": 1133589609.0,
                "name": "Appingedam"
            },
            "geometry": {
                "type": "Point",
                "coordinates": [
                    6.8623381,
                    53.3258964
                ]
            }
        },
        {
            "type": "Feature",
            "properties": {
                "node_id": 48397300.0,
                "name": "Delfzijl West"
            },
            "geometry": {
                "type": "Point",
                "coordinates": [
                    6.9069836,
                    53.3319844
                ]
            }
        },
        {
            "type": "Feature",
            "properties": {
                "node_id": 4046250942.0,
                "name": "Delfzijl"
            },
            "geometry": {
                "type": "Point",
                "coordinates": [
                    6.9234857,
                    53.3337497
                ]
            }
        },
        {
            "type": "Feature",
            "properties": {
                "node_id": 4016802475.0,
                "name": "Groningen"
            },
            "geometry": {
                "type": "Point",
                "coordinates": [
                    6.5636734,
                    53.2107367
                ]
            }
        },
        {
            "type": "Feature",
            "properties": {
                "node_id": 48394679.0,
                "name": "Winsum"
            },
            "geometry": {
                "type": "Point",
                "coordinates": [
                    6.5203921,
                    53.3301719
                ]
            }
        },
        {
            "type": "Feature",
            "properties": {
                "node_id": 48430312.0,
                "name": "Baflo"
            },
            "geometry": {
                "type": "Point",
                "coordinates": [
                    6.5188869,
                    53.3610157
                ]
            }
        },
        {
            "type": "Feature",
            "properties": {
                "node_id": 48458372.0,
                "name": "Warffum"
            },
            "geometry": {
                "type": "Point",
                "coordinates": [
                    6.5668482,
                    53.3900961
                ]
            }
        },
        {
            "type": "Feature",
            "properties": {
                "node_id": 48467986.0,
                "name": "Usquert"
            },
            "geometry": {
                "type": "Point",
                "coordinates": [
                    6.609438,
                    53.4009373
                ]
            }
        },
        {
            "type": "Feature",
            "properties": {
                "node_id": 48475359.0,
                "name": "Uithuizen"
            },
            "geometry": {
                "type": "Point",
                "coordinates": [
                    6.6748391,
                    53.4096488
                ]
            }
        },
        {
            "type": "Feature",
            "properties": {
                "node_id": 1133589413.0,
                "name": "Uithuizermeeden"
            },
            "geometry": {
                "type": "Point",
                "coordinates": [
                    6.7203079,
                    53.4139115
                ]
            }
        },
        {
            "type": "Feature",
            "properties": {
                "node_id": 4031094084.0,
                "name": "Roodeschool"
            },
            "geometry": {
                "type": "Point",
                "coordinates": [
                    6.7585167,
                    53.4212147
                ]
            }
        },
        {
            "type": "Feature",
            "properties": {
                "node_id": 5157629618.0,
                "name": "Eemshaven"
            },
            "geometry": {
                "type": "Point",
                "coordinates": [
                    6.8308325,
                    53.4585725
                ]
            }
        },
        {
            "type": "Feature",
            "properties": {
                "node_id": 27395743.0,
                "name": "Esens (Ostfriesland)"
            },
            "geometry": {
                "type": "Point",
                "coordinates": [
                    7.6156365,
                    53.6363034
                ]
            }
        },
        {
            "type": "Feature",
            "properties": {
                "node_id": 27395749.0,
                "name": "Burhafe (Ostfriesl)"
            },
            "geometry": {
                "type": "Point",
                "coordinates": [
                    7.7113411,
                    53.6065059
                ]
            }
        },
        {
            "type": "Feature",
            "properties": {
                "node_id": 27395752.0,
                "name": "Wittmund"
            },
            "geometry": {
                "type": "Point",
                "coordinates": [
                    7.7889123,
                    53.5798265
                ]
            }
        },
        {
            "type": "Feature",
            "properties": {
                "node_id": 27395299.0,
                "name": "Jever"
            },
            "geometry": {
                "type": "Point",
                "coordinates": [
                    7.8933548,
                    53.5686934
                ]
            }
        },
        {
            "type": "Feature",
            "properties": {
                "node_id": 27394887.0,
                "name": "Schortens-Heidmühle"
            },
            "geometry": {
                "type": "Point",
                "coordinates": [
                    7.9462513,
                    53.5422864
                ]
            }
        },
        {
            "type": "Feature",
            "properties": {
                "node_id": 1515946762.0,
                "name": "Sande"
            },
            "geometry": {
                "type": "Point",
                "coordinates": [
                    8.0313948,
                    53.4903436
                ]
            }
        },
        {
            "type": "Feature",
            "properties": {
                "node_id": 8910521860.0,
                "name": "Wilhelmshaven Hbf"
            },
            "geometry": {
                "type": "Point",
                "coordinates": [
                    8.1148479,
                    53.5189299
                ]
            }
        },
        {
            "type": "Feature",
            "properties": {
                "node_id": 447986637.0,
                "name": "Norddeich Mole"
            },
            "geometry": {
                "type": "Point",
                "coordinates": [
                    7.1587306,
                    53.6243124
                ]
            }
        },
        {
            "type": "Feature",
            "properties": {
                "node_id": 700310412.0,
                "name": "Norddeich"
            },
            "geometry": {
                "type": "Point",
                "coordinates": [
                    7.1608518,
                    53.6215695
                ]
            }
        },
        {
            "type": "Feature",
            "properties": {
                "node_id": 2851099117.0,
                "name": "Norden"
            },
            "geometry": {
                "type": "Point",
                "coordinates": [
                    7.2189714,
                    53.5881673
                ]
            }
        },
        {
            "type": "Feature",
            "properties": {
                "node_id": 431171299.0,
                "name": "Marienhafe"
            },
            "geometry": {
                "type": "Point",
                "coordinates": [
                    7.2744714,
                    53.5191299
                ]
            }
        },
        {
            "type": "Feature",
            "properties": {
                "node_id": 32032402.0,
                "name": "Emden Hauptbahnhof"
            },
            "geometry": {
                "type": "Point",
                "coordinates": [
                    7.1951711,
                    53.3697127
                ]
            }
        },
        {
            "type": "Feature",
            "properties": {
                "node_id": 4208121317.0,
                "name": "Augustfehn"
            },
            "geometry": {
                "type": "Point",
                "coordinates": [
                    7.7597978,
                    53.2208588
                ]
            }
        },
        {
            "type": "Feature",
            "properties": {
                "node_id": 4208121324.0,
                "name": "Westerstede-Ocholt"
            },
            "geometry": {
                "type": "Point",
                "coordinates": [
                    7.8875221,
                    53.2020939
                ]
            }
        },
        {
            "type": "Feature",
            "properties": {
                "node_id": 4208121319.0,
                "name": "Bad Zwischenahn"
            },
            "geometry": {
                "type": "Point",
                "coordinates": [
                    8.0035131,
                    53.1825391
                ]
            }
        },
        {
            "type": "Feature",
            "properties": {
                "node_id": 4208121321.0,
                "name": "Oldenburg (Oldb) Hbf"
            },
            "geometry": {
                "type": "Point",
                "coordinates": [
                    8.2226133,
                    53.1440107
                ]
            }
        },
        {
            "type": "Feature",
            "properties": {
                "node_id": 3710910699.0,
                "name": "Delmenhorst"
            },
            "geometry": {
                "type": "Point",
                "coordinates": [
                    8.6296871,
                    53.052791
                ]
            }
        },
        {
            "type": "Feature",
            "properties": {
                "node_id": 775544393.0,
                "name": "Bremen Hbf"
            },
            "geometry": {
                "type": "Point",
                "coordinates": [
                    8.8134097,
                    53.0830437
                ]
            }
        },
        {
            "type": "Feature",
            "properties": {
                "node_id": 2576177864.0,
                "name": "Verden (Aller)"
            },
            "geometry": {
                "type": "Point",
                "coordinates": [
                    9.2382944,
                    52.9195972
                ]
            }
        },
        {
            "type": "Feature",
            "properties": {
                "node_id": 21661528.0,
                "name": "Nienburg (Weser)"
            },
            "geometry": {
                "type": "Point",
                "coordinates": [
                    9.2180083,
                    52.645314
                ]
            }
        },
        {
            "type": "Feature",
            "properties": {
                "node_id": 2712496423.0,
                "name": "Hannover Hauptbahnhof"
            },
            "geometry": {
                "type": "Point",
                "coordinates": [
                    9.741909,
                    52.3771563
                ]
            }
        },
        {
            "type": "Feature",
            "properties": {
                "node_id": 333678572.0,
                "name": "Braunschweig Hauptbahnhof"
            },
            "geometry": {
                "type": "Point",
                "coordinates": [
                    10.5405725,
                    52.2520176
                ]
            }
        },
        {
            "type": "Feature",
            "properties": {
                "node_id": 300083391.0,
                "name": "Helmstedt"
            },
            "geometry": {
                "type": "Point",
                "coordinates": [
                    11.0106723,
                    52.2220981
                ]
            }
        },
        {
            "type": "Feature",
            "properties": {
                "node_id": 297669607.0,
                "name": "Magdeburg Hauptbahnhof"
            },
            "geometry": {
                "type": "Point",
                "coordinates": [
                    11.6263143,
                    52.130423
                ]
            }
        },
        {
            "type": "Feature",
            "properties": {
                "node_id": 1372291295.0,
                "name": "Köthen"
            },
            "geometry": {
                "type": "Point",
                "coordinates": [
                    11.9893583,
                    51.7523466
                ]
            }
        },
        {
            "type": "Feature",
            "properties": {
                "node_id": 447734809.0,
                "name": "Halle (Saale) Hauptbahnhof"
            },
            "geometry": {
                "type": "Point",
                "coordinates": [
                    11.9877833,
                    51.4773879
                ]
            }
        },
        {
            "type": "Feature",
            "properties": {
                "node_id": 2299420218.0,
                "name": "Leipzig Hauptbahnhof"
            },
            "geometry": {
                "type": "Point",
                "coordinates": [
                    12.3821398,
                    51.3457291
                ]
            }
        },
        {
            "type": "Feature",
            "properties": {
                "node_id": 3248201146.0,
                "name": "Oostende"
            },
            "geometry": {
                "type": "Point",
                "coordinates": [
                    2.9262636,
                    51.2285827
                ]
            }
        },
        {
            "type": "Feature",
            "properties": {
                "node_id": 3005846928.0,
                "name": "Brugge"
            },
            "geometry": {
                "type": "Point",
                "coordinates": [
                    3.216942,
                    51.1968229
                ]
            }
        },
        {
            "type": "Feature",
            "properties": {
                "node_id": 3484829966.0,
                "name": "Gent-Sint-Pieters"
            },
            "geometry": {
                "type": "Point",
                "coordinates": [
                    3.7101827,
                    51.0351477
                ]
            }
        },
        {
            "type": "Feature",
            "properties": {
                "node_id": 1309177511.0,
                "name": "Bruxelles-Midi - Brussel-Zuid"
            },
            "geometry": {
                "type": "Point",
                "coordinates": [
                    4.3357089,
                    50.8355324
                ]
            }
        },
        {
            "type": "Feature",
            "properties": {
                "node_id": 1944381554.0,
                "name": "Bruxelles-Central - Brussel-Centraal"
            },
            "geometry": {
                "type": "Point",
                "coordinates": [
                    4.3566802,
                    50.8452248
                ]
            }
        },
        {
            "type": "Feature",
            "properties": {
                "node_id": 1313201033.0,
                "name": "Bruxelles-Nord - Brussel-Noord"
            },
            "geometry": {
                "type": "Point",
                "coordinates": [
                    4.3616411,
                    50.8605249
                ]
            }
        },
        {
            "type": "Feature",
            "properties": {
                "node_id": 4946185364.0,
                "name": "Leuven"
            },
            "geometry": {
                "type": "Point",
                "coordinates": [
                    4.716137,
                    50.8814004
                ]
            }
        },
        {
            "type": "Feature",
            "properties": {
                "node_id": 1235738107.0,
                "name": "Liège-Guillemins"
            },
            "geometry": {
                "type": "Point",
                "coordinates": [
                    5.5669612,
                    50.6245632
                ]
            }
        },
        {
            "type": "Feature",
            "properties": {
                "node_id": 1706377840.0,
                "name": "Verviers-Central"
            },
            "geometry": {
                "type": "Point",
                "coordinates": [
                    5.8542653,
                    50.5875295
                ]
            }
        },
        {
            "type": "Feature",
            "properties": {
                "node_id": 2540120496.0,
                "name": "Welkenraedt"
            },
            "geometry": {
                "type": "Point",
                "coordinates": [
                    5.9755368,
                    50.6593926
                ]
            }
        },
        {
            "type": "Feature",
            "properties": {
                "node_id": 2332079867.0,
                "name": "Eupen"
            },
            "geometry": {
                "type": "Point",
                "coordinates": [
                    6.0389139,
                    50.6350905
                ]
            }
        },
        {
            "type": "Feature",
            "properties": {
                "node_id": 973780921.0,
                "name": "Leipzig/Halle Flughafen"
            },
            "geometry": {
                "type": "Point",
                "coordinates": [
                    12.2239298,
                    51.4233775
                ]
            }
        },
        {
            "type": "Feature",
            "properties": {
                "node_id": 1642975102.0,
                "name": "Halle (Saale) Hauptbahnhof"
            },
            "geometry": {
                "type": "Point",
                "coordinates": [
                    11.9879613,
                    51.4774394
                ]
            }
        },
        {
            "type": "Feature",
            "properties": {
                "node_id": 32879791.0,
                "name": "Köthen"
            },
            "geometry": {
                "type": "Point",
                "coordinates": [
                    11.989547,
                    51.7523705
                ]
            }
        },
        {
            "type": "Feature",
            "properties": {
                "node_id": 419848532.0,
                "name": "Magdeburg Hauptbahnhof"
            },
            "geometry": {
                "type": "Point",
                "coordinates": [
                    11.6272343,
                    52.1306199
                ]
            }
        },
        {
            "type": "Feature",
            "properties": {
                "node_id": 333678399.0,
                "name": "Braunschweig Hauptbahnhof"
            },
            "geometry": {
                "type": "Point",
                "coordinates": [
                    10.540525,
                    52.2520486
                ]
            }
        },
        {
            "type": "Feature",
            "properties": {
                "node_id": 2712496521.0,
                "name": "Hannover Hauptbahnhof"
            },
            "geometry": {
                "type": "Point",
                "coordinates": [
                    9.7422373,
                    52.3774274
                ]
            }
        },
        {
            "type": "Feature",
            "properties": {
                "node_id": 160631601.0,
                "name": "Minden (Westf)"
            },
            "geometry": {
                "type": "Point",
                "coordinates": [
                    8.9347762,
                    52.2904794
                ]
            }
        },
        {
            "type": "Feature",
            "properties": {
                "node_id": 26112746.0,
                "name": "Bad Oeynhausen"
            },
            "geometry": {
                "type": "Point",
                "coordinates": [
                    8.7962449,
                    52.2053588
                ]
            }
        },
        {
            "type": "Feature",
            "properties": {
                "node_id": 26109580.0,
                "name": "Herford"
            },
            "geometry": {
                "type": "Point",
                "coordinates": [
                    8.663612,
                    52.1196905
                ]
            }
        },
        {
            "type": "Feature",
            "properties": {
                "node_id": 1556824906.0,
                "name": "Bielefeld Hbf"
            },
            "geometry": {
                "type": "Point",
                "coordinates": [
                    8.532934,
                    52.0296348
                ]
            }
        },
        {
            "type": "Feature",
            "properties": {
                "node_id": 253912692.0,
                "name": "Gütersloh Hbf"
            },
            "geometry": {
                "type": "Point",
                "coordinates": [
                    8.384858,
                    51.9068819
                ]
            }
        },
        {
            "type": "Feature",
            "properties": {
                "node_id": 712232331.0,
                "name": "Hamm (Westf) Hbf"
            },
            "geometry": {
                "type": "Point",
                "coordinates": [
                    7.8073535,
                    51.6780675
                ]
            }
        },
        {
            "type": "Feature",
            "properties": {
                "node_id": 580755052.0,
                "name": "Dortmund Hbf"
            },
            "geometry": {
                "type": "Point",
                "coordinates": [
                    7.4592664,
                    51.5178288
                ]
            }
        },
        {
            "type": "Feature",
            "properties": {
                "node_id": 968824743.0,
                "name": "Hagen Hbf"
            },
            "geometry": {
                "type": "Point",
                "coordinates": [
                    7.460334,
                    51.3634061
                ]
            }
        },
        {
            "type": "Feature",
            "properties": {
                "node_id": 463302619.0,
                "name": "Wuppertal Hauptbahnhof"
            },
            "geometry": {
                "type": "Point",
                "coordinates": [
                    7.1500481,
                    51.2545973
                ]
            }
        },
        {
            "type": "Feature",
            "properties": {
                "node_id": 73003803.0,
                "name": "Solingen Hbf"
            },
            "geometry": {
                "type": "Point",
                "coordinates": [
                    7.0039892,
                    51.1611089
                ]
            }
        },
        {
            "type": "Feature",
            "properties": {
                "node_id": 1629836040.0,
                "name": "Köln Hauptbahnhof"
            },
            "geometry": {
                "type": "Point",
                "coordinates": [
                    6.9594996,
                    50.9429562
                ]
            }
        },
        {
            "type": "Feature",
            "properties": {
                "node_id": 1433921445.0,
                "name": "Emden Außenhafen"
            },
            "geometry": {
                "type": "Point",
                "coordinates": [
                    7.185905,
                    53.3439284
                ]
            }
        },
        {
            "type": "Feature",
            "properties": {
                "node_id": 6057699462.0,
                "name": "Emden Hauptbahnhof"
            },
            "geometry": {
                "type": "Point",
                "coordinates": [
                    7.1949608,
                    53.3697161
                ]
            }
        },
        {
            "type": "Feature",
            "properties": {
                "node_id": 3783233931.0,
                "name": "Enschede"
            },
            "geometry": {
                "type": "Point",
                "coordinates": [
                    6.8901499,
                    52.2225438
                ]
            }
        },
        {
            "type": "Feature",
            "properties": {
                "node_id": 4894042409.0,
                "name": "Enschede De Eschmarke"
            },
            "geometry": {
                "type": "Point",
                "coordinates": [
                    6.9513833,
                    52.2212139
                ]
            }
        },
        {
            "type": "Feature",
            "properties": {
                "node_id": 4894042410.0,
                "name": "Glanerbrug"
            },
            "geometry": {
                "type": "Point",
                "coordinates": [
                    6.9744811,
                    52.21863
                ]
            }
        },
        {
            "type": "Feature",
            "properties": {
                "node_id": 1934762125.0,
                "name": "Gronau (Westf)"
            },
            "geometry": {
                "type": "Point",
                "coordinates": [
                    7.0220147,
                    52.215209
                ]
            }
        },
        {
            "type": "Feature",
            "properties": {
                "node_id": 958196817.0,
                "name": "Ochtrup"
            },
            "geometry": {
                "type": "Point",
                "coordinates": [
                    7.1848531,
                    52.2016602
                ]
            }
        },
        {
            "type": "Feature",
            "properties": {
                "node_id": 358046314.0,
                "name": "Metelen Land"
            },
            "geometry": {
                "type": "Point",
                "coordinates": [
                    7.2537726,
                    52.1625218
                ]
            }
        },
        {
            "type": "Feature",
            "properties": {
                "node_id": 26204125.0,
                "name": "Steinfurt-Burgsteinfurt"
            },
            "geometry": {
                "type": "Point",
                "coordinates": [
                    7.3297954,
                    52.147046
                ]
            }
        },
        {
            "type": "Feature",
            "properties": {
                "node_id": 26204115.0,
                "name": "Steinfurt-Grottenkamp"
            },
            "geometry": {
                "type": "Point",
                "coordinates": [
                    7.3757327,
                    52.1232615
                ]
            }
        },
        {
            "type": "Feature",
            "properties": {
                "node_id": 31513964.0,
                "name": "Steinfurt-Borghorst"
            },
            "geometry": {
                "type": "Point",
                "coordinates": [
                    7.3995348,
                    52.1182749
                ]
            }
        },
        {
            "type": "Feature",
            "properties": {
                "node_id": 26204098.0,
                "name": "Nordwalde"
            },
            "geometry": {
                "type": "Point",
                "coordinates": [
                    7.4613083,
                    52.0777934
                ]
            }
        },
        {
            "type": "Feature",
            "properties": {
                "node_id": 4175000381.0,
                "name": "Altenberge"
            },
            "geometry": {
                "type": "Point",
                "coordinates": [
                    7.4815715,
                    52.0517651
                ]
            }
        },
        {
            "type": "Feature",
            "properties": {
                "node_id": 269450415.0,
                "name": "Münster-Häger"
            },
            "geometry": {
                "type": "Point",
                "coordinates": [
                    7.5628699,
                    52.0218489
                ]
            }
        },
        {
            "type": "Feature",
            "properties": {
                "node_id": 1335815636.0,
                "name": "Münster (Westf) Hbf"
            },
            "geometry": {
                "type": "Point",
                "coordinates": [
                    7.6363875,
                    51.956641
                ]
            }
        },
        {
            "type": "Feature",
            "properties": {
                "node_id": 1874467360.0,
                "name": "Telgte"
            },
            "geometry": {
                "type": "Point",
                "coordinates": [
                    7.7819986,
                    51.9810358
                ]
            }
        },
        {
            "type": "Feature",
            "properties": {
                "node_id": 246699102.0,
                "name": "Warendorf-Einen-Müssingen"
            },
            "geometry": {
                "type": "Point",
                "coordinates": [
                    7.8941448,
                    51.9615204
                ]
            }
        },
        {
            "type": "Feature",
            "properties": {
                "node_id": 246699637.0,
                "name": "Warendorf"
            },
            "geometry": {
                "type": "Point",
                "coordinates": [
                    7.9844783,
                    51.9501072
                ]
            }
        },
        {
            "type": "Feature",
            "properties": {
                "node_id": 190077103.0,
                "name": "Beelen"
            },
            "geometry": {
                "type": "Point",
                "coordinates": [
                    8.1159287,
                    51.9293233
                ]
            }
        },
        {
            "type": "Feature",
            "properties": {
                "node_id": 271236616.0,
                "name": "Clarholz"
            },
            "geometry": {
                "type": "Point",
                "coordinates": [
                    8.2010523,
                    51.8983524
                ]
            }
        },
        {
            "type": "Feature",
            "properties": {
                "node_id": 3872660768.0,
                "name": "Herzebrock"
            },
            "geometry": {
                "type": "Point",
                "coordinates": [
                    8.2366833,
                    51.8800968
                ]
            }
        },
        {
            "type": "Feature",
            "properties": {
                "node_id": 1874467312.0,
                "name": "Rheda-Wiedenbrück"
            },
            "geometry": {
                "type": "Point",
                "coordinates": [
                    8.2861634,
                    51.8568457
                ]
            }
        },
        {
            "type": "Feature",
            "properties": {
                "node_id": 417850779.0,
                "name": "Gütersloh Hbf"
            },
            "geometry": {
                "type": "Point",
                "coordinates": [
                    8.3849298,
                    51.906843
                ]
            }
        },
        {
            "type": "Feature",
            "properties": {
                "node_id": 724206779.0,
                "name": "Bielefeld-Brackwede"
            },
            "geometry": {
                "type": "Point",
                "coordinates": [
                    8.4985859,
                    51.9973639
                ]
            }
        },
        {
            "type": "Feature",
            "properties": {
                "node_id": 1556824973.0,
                "name": "Bielefeld Hbf"
            },
            "geometry": {
                "type": "Point",
                "coordinates": [
                    8.5327754,
                    52.0297109
                ]
            }
        },
        {
            "type": "Feature",
            "properties": {
                "node_id": 3070796934.0,
                "name": "Münster-Roxel"
            },
            "geometry": {
                "type": "Point",
                "coordinates": [
                    7.526326,
                    51.9462631
                ]
            }
        },
        {
            "type": "Feature",
            "properties": {
                "node_id": 295133490.0,
                "name": "Havixbeck"
            },
            "geometry": {
                "type": "Point",
                "coordinates": [
                    7.4084156,
                    51.9664449
                ]
            }
        },
        {
            "type": "Feature",
            "properties": {
                "node_id": 268555048.0,
                "name": "Billerbeck"
            },
            "geometry": {
                "type": "Point",
                "coordinates": [
                    7.297419,
                    51.9813017
                ]
            }
        },
        {
            "type": "Feature",
            "properties": {
                "node_id": 268555082.0,
                "name": "Lutum"
            },
            "geometry": {
                "type": "Point",
                "coordinates": [
                    7.2267084,
                    51.9824947
                ]
            }
        },
        {
            "type": "Feature",
            "properties": {
                "node_id": 1431890001.0,
                "name": "Coesfeld Schulzentrum"
            },
            "geometry": {
                "type": "Point",
                "coordinates": [
                    7.166327,
                    51.9515524
                ]
            }
        },
        {
            "type": "Feature",
            "properties": {
                "node_id": 242703473.0,
                "name": "Coesfeld (Westf)"
            },
            "geometry": {
                "type": "Point",
                "coordinates": [
                    7.1640339,
                    51.9394868
                ]
            }
        },
        {
            "type": "Feature",
            "properties": {
                "node_id": 4576144317.0,
                "name": "Osnabrück Hauptbahnhof"
            },
            "geometry": {
                "type": "Point",
                "coordinates": [
                    8.0612541,
                    52.2727213
                ]
            }
        },
        {
            "type": "Feature",
            "properties": {
                "node_id": 4895853492.0,
                "name": "Hasbergen"
            },
            "geometry": {
                "type": "Point",
                "coordinates": [
                    7.9533639,
                    52.2417282
                ]
            }
        },
        {
            "type": "Feature",
            "properties": {
                "node_id": 267407392.0,
                "name": "Natrup-Hagen"
            },
            "geometry": {
                "type": "Point",
                "coordinates": [
                    7.9104666,
                    52.2094549
                ]
            }
        },
        {
            "type": "Feature",
            "properties": {
                "node_id": 4096208467.0,
                "name": "Lengerich (Westf)"
            },
            "geometry": {
                "type": "Point",
                "coordinates": [
                    7.8786621,
                    52.1754717
                ]
            }
        },
        {
            "type": "Feature",
            "properties": {
                "node_id": 276525453.0,
                "name": "Kattenvenne"
            },